city,Lat,Lng,Max Temp,Humidity,Cloudiness,Wind Speed,Country,Date
margaret river,-33.95,115.0667,293.13,73,77,5.02,AU,1710291441
port-aux-francais,-49.35,70.2167,278.41,69,29,15.33,TF,1710291442
ust-nera,64.5667,143.2,248.96,94,66,1.57,RU,1710291443
ribeira grande,38.5167,-28.7,290.25,91,49,8.05,PT,1710291445
howrah,22.5892,88.3103,298.15,88,40,0.0,IN,1710291445
puerto natales,-51.7236,-72.4875,279.35,82,71,4.23,CL,1710291446
tralee,52.2704,-9.7026,285.04,92,100,7.68,IE,1710291448
dhidhdhoo,6.8833,73.1,300.88,76,11,2.65,MV,1710291449
lebu,-37.6167,-73.65,286.39,87,2,3.77,CL,1710291449
talnakh,69.4865,88.3972,253.26,97,100,7.92,RU,1710291450
rabo de peixe,37.8,-25.5833,288.88,88,40,4.63,PT,1710291451
peace river,56.2501,-117.286,281.32,53,40,1.54,CA,1710291452
bilibino,68.0546,166.4372,254.34,86,34,0.89,RU,1710291454
bethel,41.3712,-73.414,286.32,38,0,2.06,US,1710291274
hawaiian paradise park,19.5933,-154.9731,299.88,82,40,7.72,US,1710291456
adamstown,-25.066,-130.1015,297.65,83,100,1.59,PN,1710291189
klyuchi,52.2667,79.1667,256.22,98,53,1.72,RU,1710291458
puerto ayora,-0.7393,-90.3518,298.46,100,62,0.89,EC,1710291459
yuzhno-kurilsk,44.0306,145.8556,269.69,78,100,13.95,RU,1710291460
hovd,48.0056,91.6419,271.35,36,100,1.23,MN,1710291462
tiksi,71.6872,128.8694,255.91,96,100,2.47,RU,1710291463
fort bragg,35.139,-79.006,292.06,39,0,2.57,US,1710291302
wailua homesteads,22.0669,-159.378,299.89,72,75,7.2,US,1710291465
morro agudo,-20.7314,-48.0578,300.88,61,100,0.97,BR,1710291466
kalianget,-7.05,113.9333,301.0,85,85,8.21,ID,1710291468
barcelona,41.3888,2.159,285.12,77,20,2.57,ES,1710291291
codrington,-38.2667,141.9667,289.1,69,99,4.94,AU,1710291472
fortuna,40.5982,-124.1573,285.89,78,75,3.09,US,1710291472
mhamid,29.82,-5.72,292.03,25,96,3.0,MA,1710291474
arraial do cabo,-22.9661,-42.0278,298.13,73,75,2.06,BR,1710291475
port elizabeth,-33.918,25.5701,293.32,77,0,6.17,ZA,1710291477
formosa,-26.1775,-58.1781,305.35,69,0,4.63,AR,1710291361
likisa,-8.6695,125.6875,293.05,95,100,3.34,TL,1710291478
constantia,44.1833,28.65,282.53,97,100,4.29,RO,1710291479
blackmans bay,-43.0167,147.3167,291.22,56,6,1.34,AU,1710291480
keflavik,64.0049,-22.5624,278.1,93,75,3.6,IS,1710291482
besisahar,28.2313,84.3761,290.49,27,0,3.88,NP,1710291485
ta`u,-14.2336,-169.5144,301.98,78,75,5.49,AS,1710291486
hamilton,39.1834,-84.5333,289.5,45,0,3.09,US,1710291428
west island,-12.1568,96.8225,300.14,74,40,6.17,CC,1710291489
oliver,49.1831,-119.5524,282.29,61,100,4.63,CA,1710291490
macau,22.2006,113.5461,293.04,73,20,5.14,MO,1710291490
nar'yan-mar,67.6713,53.087,264.32,89,96,4.02,RU,1710291494
waitangi,-43.9535,-176.5597,288.61,79,100,2.24,NZ,1710291496
naze,28.3667,129.4833,288.66,54,100,7.92,JP,1710291499
delijan,33.9905,50.6838,280.98,37,0,0.61,IR,1710291500
coquimbo,-29.9533,-71.3436,291.0,82,0,2.57,CL,1710291501
zaozersk,69.4005,32.4476,258.47,99,94,1.83,RU,1710291562
isafjordur,66.0755,-23.124,275.06,93,100,4.39,IS,1710291564
lerwick,60.1545,-1.1494,279.49,94,100,12.89,GB,1710291566
papatowai,-46.5619,169.4708,285.79,57,80,6.26,NZ,1710291568
gustine,37.2577,-120.9988,291.31,74,92,1.79,US,1710291568
kingston,17.997,-76.7936,301.68,77,20,7.72,JM,1710291541
albany,42.6001,-73.9662,281.92,62,6,0.45,US,1710291573
bredasdorp,-34.5322,20.0403,290.03,84,1,1.28,ZA,1710291573
hermanus,-34.4187,19.2345,289.71,82,21,2.29,ZA,1710291574
weno,7.4515,151.8468,300.86,76,100,6.23,FM,1710291576
tolanaro,-25.0319,46.9987,297.65,92,9,5.86,MG,1710291577
grytviken,-54.2811,-36.5092,277.22,78,10,3.89,GS,1710291578
gunnison,38.7,-107.0673,276.62,77,100,2.41,US,1710291339
debark',13.1561,37.8981,286.39,61,55,2.9,ET,1710291580
east london,-33.0153,27.9116,294.59,91,93,3.03,ZA,1710291581
port mathurin,-19.6833,63.4167,298.2,94,40,6.17,MU,1710291583
buala,-8.145,159.5921,303.17,74,70,2.62,SB,1710291583
nizhneudinsk,54.9076,99.0276,267.81,94,100,1.34,RU,1710291584
geraldton,-28.7667,114.6,303.38,51,0,5.66,AU,1710291585
saipan,15.1355,145.701,300.54,78,75,4.63,MP,1710291585
augusto correa,-1.0217,-46.635,298.22,94,100,1.45,BR,1710291588
mcminnville,45.2101,-123.1987,283.5,77,20,4.63,US,1710291343
san angelo,31.4638,-100.437,295.34,59,78,3.13,US,1710291426
kodiak,57.79,-152.4072,272.01,58,100,2.48,US,1710291590
shimoda,34.6667,138.95,286.35,66,56,2.01,JP,1710291593
kaitong,44.8135,123.15,275.47,47,0,4.58,CN,1710291596
puerto aysen,-45.4,-72.7,283.37,98,100,2.74,CL,1710291598
arraias,-12.9288,-46.9437,297.07,75,14,0.6,BR,1710291599
college,64.8569,-147.8028,262.08,50,99,1.91,US,1710291600
berezovo,63.9381,65.0419,257.79,87,100,5.48,RU,1710291603
vorgashor,67.5833,63.95,255.72,92,100,7.09,RU,1710291607
namibe,-15.1961,12.1522,299.32,70,20,1.07,AO,1710291612
sangueya,10.7,-14.3667,296.98,83,100,1.63,GN,1710291616
axim,4.8699,-2.2405,300.83,87,100,3.3,GH,1710291619
homosassa springs,28.8036,-82.5759,293.23,81,0,0.0,US,1710291620
gadzhiyevo,69.2551,33.3362,267.45,75,100,6.97,RU,1710291621
mossoro,-5.1875,-37.3442,298.86,88,94,2.11,BR,1710291622
christchurch,-43.5333,172.6333,289.26,44,100,5.14,NZ,1710291554
aasiaat,68.7098,-52.8699,257.16,99,99,1.22,GL,1710291624
invercargill,-46.4,168.35,286.49,67,77,5.81,NZ,1710291626
remire-montjoly,4.9167,-52.2667,301.17,83,75,4.12,GF,1710291628
nemuro,43.3236,145.575,270.3,78,100,18.11,JP,1710291618
whitehorse,60.7161,-135.0538,275.58,48,75,5.66,CA,1710291630
kolonia,50.9333,6.95,281.94,89,100,0.89,DE,1710291609
ushuaia,-54.8,-68.3,283.94,57,20,5.14,AR,1710291692
roslavl',53.9528,32.8639,269.1,86,100,2.99,RU,1710291694
isla mujeres,21.2311,-86.731,299.91,81,0,3.48,MX,1710291697
cabo san lucas,22.8909,-109.9124,300.16,53,2,3.94,MX,1710291484
longyearbyen,78.2186,15.6401,263.06,79,100,9.26,SJ,1710291700
tsiombe,-25.3,45.4833,297.79,77,37,1.77,MG,1710291701
enewetak,11.3474,162.3373,299.84,80,88,10.09,MH,1710291702
chishmy,54.5765,55.3764,263.28,98,98,1.35,RU,1710291703
as-suwayda,32.709,36.5695,284.85,31,5,5.45,SY,1710291704
souillac,-20.5167,57.5167,299.36,78,75,4.63,MU,1710291704
udachny,66.4167,112.4,244.07,98,45,0.75,RU,1710291705
alice springs,-23.7,133.8833,305.9,22,8,3.6,AU,1710291706
kirundo,-2.5833,30.1667,289.09,95,27,1.54,BI,1710291707
port hedland,-20.3167,118.5667,303.18,74,92,3.6,AU,1710291685
maceio,-9.6658,-35.7353,300.84,89,0,1.03,BR,1710291611
kerikeri,-35.2268,173.9474,296.43,82,100,0.45,NZ,1710291711
sydney mines,46.2367,-60.2177,274.71,96,100,5.66,CA,1710291711
lobujya,27.95,86.8167,258.82,15,0,1.92,NP,1710291714
edinburgh of the seven seas,-37.0676,-12.3116,290.84,76,100,7.6,SH,1710291715
tazovsky,67.4667,78.7,254.85,86,100,11.04,RU,1710291716
san jose,37.3394,-121.895,290.02,58,75,6.69,US,1710291671
jamestown,42.097,-79.2353,284.95,67,0,0.0,US,1710291666
nuuk,64.1835,-51.7216,268.08,92,100,3.58,GL,1710291501
uturoa,-16.7333,-151.4333,302.29,77,22,5.78,PF,1710291722
ilulissat,69.2167,-51.1,259.68,96,100,0.52,GL,1710291723
anadyr,64.75,177.4833,252.59,83,75,3.0,RU,1710291723
alaghsas,17.0187,8.0168,300.27,10,99,5.03,NE,1710291724
greymouth,-42.4667,171.2,288.78,74,80,3.33,NZ,1710291725
ancud,-41.8697,-73.8203,287.06,77,100,5.59,CL,1710291726
cabedelo,-6.9811,-34.8339,300.52,83,52,2.95,BR,1710291727
inderbor,48.55,51.7833,271.33,86,100,4.42,KZ,1710291731
pangai,-19.8,-174.35,302.21,79,75,2.06,TO,1710291732
bafoulabe,13.8065,-10.8321,305.63,15,6,2.71,ML,1710291741
punta arenas,-53.15,-70.9167,282.1,81,40,2.06,CL,1710291622
salahonda,2.1019,-78.7217,300.06,90,100,3.67,CO,1710291745
karratha,-20.7377,116.8463,302.17,57,66,2.49,AU,1710291746
tailai,46.3833,123.4,275.25,46,0,5.76,CN,1710291748
avarua,-21.2078,-159.775,301.18,89,75,7.72,CK,1710291752
dzhambeyty,50.2536,52.595,265.57,97,93,2.56,KZ,1710291756
kosonsoy,41.2561,71.5508,275.46,98,100,3.38,UZ,1710291761
lepsy,46.235,78.9456,274.24,92,100,6.4,KZ,1710291762
ca mau,9.1769,105.15,300.98,68,82,4.89,VN,1710291763
taroa,8.7058,171.2275,300.12,83,97,11.53,MH,1710291766
gornozavodsk,58.3758,58.3211,247.58,100,100,0.25,RU,1710291767
stanley,54.868,-1.6985,283.86,89,100,8.0,GB,1710291768
nanao,37.05,136.9667,280.55,52,98,4.61,JP,1710291770
fale old settlement,-9.3852,-171.2468,302.77,74,56,3.68,TK,1710291771
san antonio de pale,-1.4014,5.6325,301.82,81,100,3.65,GQ,1710291832
la'ie,21.6477,-157.9253,300.96,86,36,0.45,US,1710291833
murghob,38.1702,73.9667,259.44,76,100,2.19,TJ,1710291834
sitka,57.0531,-135.33,274.93,89,100,2.08,US,1710291717
bathsheba,13.2167,-59.5167,299.49,83,20,7.2,BB,1710291835
lipnik nad becvou,49.5272,17.5859,280.95,87,100,1.24,CZ,1710291836
palikir - national government center,6.9248,158.1611,300.49,81,26,9.87,FM,1710291837
chonchi,-42.6128,-73.8092,285.99,85,100,2.47,CL,1710291838
pyt-yakh,60.7499,72.8582,247.96,100,62,1.44,RU,1710291839
florina,40.782,21.4098,278.03,85,35,2.06,GR,1710291840
olonkinbyen,70.9221,-8.7187,272.07,95,99,3.16,SJ,1710291842
mendi,-6.1761,143.6513,295.7,55,58,2.81,PG,1710291845
haiku-pauwela,20.9219,-156.3051,299.28,74,38,1.34,US,1710291847
tangalle,6.024,80.7911,295.24,87,8,3.21,LK,1710291848
thompson,55.7435,-97.8558,266.24,86,100,3.09,CA,1710291851
chiredzi,-21.05,31.6667,292.36,90,5,2.17,ZW,1710291854
goure,13.9835,10.2704,300.17,12,15,4.29,NE,1710291855
dudinka,69.4058,86.1778,253.49,97,100,9.83,RU,1710291857
jayapura,-2.5333,140.7,299.81,72,97,0.82,ID,1710291857
vila velha,-20.3297,-40.2925,299.23,85,75,2.24,BR,1710291664
rosoman,41.5161,21.9497,282.47,75,90,1.57,MK,1710291860
sigli,5.3848,95.9609,299.38,73,40,1.19,ID,1710291863
yellowknife,62.456,-114.3525,262.27,92,100,4.63,CA,1710291688
kapuskasing,49.4169,-82.4331,280.15,49,75,3.09,CA,1710291779
qaqortoq,60.7167,-46.0333,261.9,87,54,2.11,GL,1710291865
mukachevo,48.4419,22.7179,283.06,93,100,1.44,UA,1710291866
alofi,-19.0595,-169.9187,302.09,84,20,5.66,NU,1710291867
uttar char fasson,22.2332,90.7132,297.44,85,2,2.68,BD,1710291868
atafu village,-8.5421,-172.5159,303.08,73,85,4.67,TK,1710291869
port macquarie,-31.4333,152.9167,300.87,58,47,2.45,AU,1710291870
badger,64.8,-147.5333,262.99,52,40,4.63,US,1710291876
katsuren-haebaru,26.3369,127.8719,292.58,49,40,8.23,JP,1710291881
saint-philippe,-21.3585,55.7679,297.92,81,45,5.06,RE,1710291882
shingu,33.7333,135.9833,282.28,49,6,5.45,JP,1710291883
lagoa,39.05,-27.9833,288.82,86,83,8.69,PT,1710291799
vilyuchinsk,52.9306,158.4028,269.3,63,1,2.89,RU,1710291896
inhambane,-23.865,35.3833,297.24,91,100,8.39,MZ,1710291898
la ronge,55.1001,-105.2842,269.29,68,40,4.12,CA,1710291901
mount gambier,-37.8333,140.7667,292.19,64,96,3.77,AU,1710291901
maua,-23.6678,-46.4614,295.37,90,99,2.14,BR,1710291787
nagqu,31.5,92.0,266.01,35,0,1.21,CN,1710291907
al hazm,16.1641,44.7769,297.52,50,64,2.1,YE,1710291908
iqaluit,63.7506,-68.5145,249.09,69,20,1.03,CA,1710291618
zhosaly,45.4878,64.0781,270.49,63,76,3.25,KZ,1710291973
tumpat,6.1978,102.171,297.14,94,20,1.03,MY,1710291974
ladario,-19.0047,-57.6017,302.67,59,76,0.49,BR,1710291975
polyarnyy,69.1989,33.4478,264.39,84,100,3.78,RU,1710291975
mejit,10.2753,170.8646,299.76,82,72,10.44,MH,1710291977
halden,59.1226,11.3871,275.67,80,100,0.94,NO,1710291978
utrik,11.2278,169.8474,299.78,78,100,9.95,MH,1710291981
cockburn town,21.4612,-71.1419,297.13,78,40,4.12,TC,1710291982
taoudenni,22.6783,-3.9836,298.28,15,8,2.76,ML,1710291983
pangody,65.85,74.4859,254.68,90,100,9.67,RU,1710291983
pandan,14.0453,124.1694,300.41,70,100,4.39,PH,1710291985
chegdomyn,51.1167,133.0167,261.36,86,79,0.99,RU,1710291987
lae,-6.7221,146.9847,303.52,65,98,5.19,PG,1710291988
nushki,29.5542,66.0215,281.81,80,93,2.9,PK,1710291989
brookings,44.3114,-96.7984,287.15,31,0,3.6,US,1710291782
lokomotivnyy,53.0118,60.5684,254.49,100,100,1.79,RU,1710291990
kirensk,57.7853,108.1119,264.59,95,100,2.31,RU,1710291993
kayenta,36.7278,-110.2546,281.78,44,100,7.29,US,1710291994
pauini,-7.7136,-66.9764,297.75,96,100,0.93,BR,1710291996
kario ghanwar,24.8082,68.6045,294.21,68,3,3.61,PK,1710291998
necochea,-38.5473,-58.7368,293.11,92,0,0.87,AR,1710292000
galliano,29.4422,-90.2992,292.59,72,0,2.57,US,1710292001
buka,40.8108,69.1986,277.11,83,100,1.8,UZ,1710292003
ha'il,27.5219,41.6907,285.16,40,0,2.06,SA,1710292007
okha,53.5739,142.9478,260.59,89,58,1.69,RU,1710292009
rahachow,53.0934,30.0495,272.54,61,100,4.04,BY,1710292010
tinghir,31.5157,-5.5343,286.59,35,97,2.83,MA,1710292011
sangin,32.0728,64.8359,282.68,84,58,4.29,AF,1710292013
pisco,-13.7,-76.2167,296.18,73,0,7.2,PE,1710292015
ganghwa-gun,37.7472,126.4856,280.09,42,9,2.57,KR,1710292016
kruisfontein,-34.0033,24.7314,291.97,76,100,3.15,ZA,1710292018
gewane,10.1664,40.6453,301.25,55,82,1.55,ET,1710292019
ardakan,32.31,54.0175,283.13,55,0,0.72,IR,1710292019
kavieng,-2.5744,150.7967,299.79,87,100,6.48,PG,1710292020
hinton,53.4001,-117.5857,275.7,88,39,0.64,CA,1710292021
malango,-2.9627,119.9001,294.66,97,100,0.97,ID,1710292022
bhadrakh,21.0528,86.52,297.4,94,7,1.93,IN,1710292022
tura,25.5198,90.2201,291.88,41,0,2.15,IN,1710292025
deqen,29.9618,90.7188,273.42,35,0,0.59,CN,1710292029
sidi ifni,29.3797,-10.173,288.33,90,60,0.74,MA,1710292030
kissimmee,28.3047,-81.4167,295.29,68,0,4.63,US,1710291742
oyan,8.05,4.7667,297.68,92,100,2.75,NG,1710292033
barra de santo antonio,-9.4047,-35.5072,300.75,83,56,3.26,BR,1710292034
nantucket,41.2835,-70.0995,282.23,70,0,6.89,US,1710292035
la passe,45.5549,-0.8967,283.28,95,62,1.86,FR,1710292037
newman,37.3138,-121.0208,289.9,74,93,1.79,US,1710292038
kulhudhuffushi,6.6221,73.07,300.82,76,9,2.78,MV,1710292039
noyabrsk,63.1994,75.4507,246.61,100,99,1.34,RU,1710292099
mankera,31.3866,71.4407,292.15,40,100,3.3,PK,1710292102
kishapu,-3.6167,33.8667,293.11,77,50,2.55,TZ,1710292103
nuku'alofa,-21.1333,-175.2,301.34,83,100,4.63,TO,1710292103
island harbour,50.724,-1.2758,284.99,93,100,3.58,GB,1710292105
egilsstadir,65.2653,-14.3948,274.41,99,100,4.01,IS,1710292105
shahba,32.8551,36.629,284.28,32,5,2.98,SY,1710292108
kristiansund,63.1115,7.732,275.51,69,75,4.12,NO,1710292110
brokopondo,4.75,-55.1667,299.95,81,76,4.32,SR,1710292111
kayangel,8.0823,134.7173,300.67,78,100,7.82,PW,1710292112
lupiro,-8.3833,36.6667,294.69,97,94,0.69,TZ,1710292113
nykarleby,63.5228,22.5307,270.32,87,100,2.35,FI,1710292115
hammerfest,70.6634,23.6821,265.4,67,85,2.06,NO,1710292115
chelak,39.9203,66.8611,275.57,93,85,0.72,UZ,1710292116
afaahiti,-17.75,-149.2833,304.08,83,69,6.81,PF,1710292122
al khums,32.6486,14.2619,287.77,64,0,5.17,LY,1710292124
mokhsogollokh,61.4681,128.9203,264.39,81,96,3.57,RU,1710292124
qaisumah,28.3112,46.1273,284.13,40,0,2.57,SA,1710292125
lander,42.833,-108.7307,283.04,47,0,0.0,US,1710292126
manakara,-22.1333,48.0167,296.51,94,21,1.14,MG,1710292127
chegutu,-18.1302,30.1407,291.08,84,10,1.58,ZW,1710292128
vilyuysk,63.7553,121.6247,254.66,97,96,1.99,RU,1710292129
kaga bandoro,6.9896,19.1874,303.18,27,81,1.44,CF,1710292130
hun,29.1268,15.9477,287.94,49,0,1.54,LY,1710292131
uvinza,-5.1036,30.3911,292.08,94,38,0.57,TZ,1710292132
iskateley,67.6803,53.1512,264.27,89,97,4.02,RU,1710292134
mar del plata,-38.0023,-57.5575,292.64,91,40,4.63,AR,1710291840
licata,37.1071,13.9461,283.28,81,0,4.37,IT,1710292135
zouerate,22.7187,-12.4521,294.26,25,28,2.67,MR,1710292137
beau vallon,-20.4189,57.6953,298.27,84,50,6.9,MU,1710292139
bryne,58.7354,5.6477,279.14,74,100,7.72,NO,1710292141
vadso,70.0744,29.7487,267.64,73,100,4.12,NO,1710292142
ende,-8.8432,121.6623,299.06,92,100,1.52,ID,1710292143
alzamay,55.5562,98.6644,266.78,95,100,1.99,RU,1710292144
narvik,68.4384,17.4272,271.69,82,64,3.5,NO,1710292146
khangarh,29.9173,71.1618,292.19,60,100,3.07,PK,1710292148
sovetskiy,61.3614,63.5842,252.78,100,95,2.67,RU,1710292152
kirakira,-10.4544,161.9205,302.93,74,100,3.07,SB,1710292154
longavi,-35.9667,-71.6833,289.3,63,0,2.98,CL,1710292157
ust'-kulom,61.6864,53.6902,261.56,97,90,3.03,RU,1710292157
torre de moncorvo,41.1792,-7.0358,281.88,87,100,0.45,PT,1710292158
linares,-35.85,-71.6,289.68,61,0,3.12,CL,1710292159
myrtle beach,33.6891,-78.8867,288.18,79,0,3.6,US,1710292161
al muwayh,22.4333,41.7583,294.42,36,4,6.58,SA,1710292162
camana,-16.6228,-72.7111,295.83,84,96,1.99,PE,1710292164
sinabang,2.4803,96.3801,300.39,75,24,1.1,ID,1710292165
hadibu,12.65,54.0333,298.2,82,7,3.37,YE,1710292167
ceeldheer,3.8488,47.1806,300.78,84,12,5.42,SO,1710292228
magadan,59.5667,150.8,264.0,86,100,0.44,RU,1710292229
emerald,-23.5333,148.1667,302.23,51,4,5.94,AU,1710292229
new norfolk,-42.7826,147.0587,292.43,40,0,0.33,AU,1710292240
mata-utu,-13.2816,-176.1745,303.07,74,55,3.75,WF,1710292241
perros-guirec,48.8145,-3.4396,284.54,95,100,0.89,FR,1710292243
eyl,7.9803,49.8164,298.96,77,44,4.46,SO,1710292243
whangarei,-35.7317,174.3239,296.27,66,100,3.27,NZ,1710292255
amurzet,47.6967,131.0981,268.69,93,94,0.53,RU,1710292257
lompoc,34.6391,-120.4579,290.94,84,40,5.66,US,1710292261
baruun-urt,46.6806,113.2792,261.55,91,41,3.3,MN,1710292264
petropavlovsk-kamchatsky,53.0452,158.6483,268.48,72,0,5.36,RU,1710292029
tarko-sale,64.9225,77.785,247.46,99,31,6.3,RU,1710292265
spittal an der drau,46.8,13.5,275.67,88,19,2.07,AT,1710292266
velizh,55.6056,31.1967,271.48,74,100,2.79,RU,1710292267
coahuayana de hidalgo,18.7,-103.6583,296.49,74,100,1.52,MX,1710292268
carutapera,-1.195,-46.02,298.55,94,100,2.47,BR,1710292269
bouna,9.2667,-3.0,301.31,59,100,1.86,CI,1710292270
hotan,37.0997,79.9269,278.59,37,100,2.62,CN,1710292271
bangaon,23.0667,88.8167,295.86,84,0,2.01,IN,1710292271
morales,2.757,-76.6172,290.92,96,90,0.69,CO,1710292273
amahai,-3.3333,128.9167,302.77,72,100,2.41,ID,1710292274
harstad,68.799,16.5293,273.24,96,100,2.24,NO,1710292274
meadow lake,34.8014,-106.5436,291.33,18,100,3.95,US,1710292275
sur,22.5667,59.5289,296.77,61,26,5.4,OM,1710292279
chernyshevskiy,63.0128,112.4714,251.56,100,100,0.74,RU,1710292280
minas de marcona,-15.2119,-75.1103,295.76,66,71,0.46,PE,1710292281
porto novo,6.4965,2.6036,301.02,86,100,3.35,BJ,1710292283
saint-francois,46.4154,3.9054,282.82,88,100,2.06,FR,1710292285
timaru,-44.4,171.25,287.63,52,100,2.24,NZ,1710292288
islamorada,24.9243,-80.6278,297.04,79,0,5.65,US,1710292051
sinazongwe,-17.2614,27.4618,296.84,72,33,2.1,ZM,1710292293
essaouira,31.5125,-9.77,289.9,86,100,5.88,MA,1710292293
selfoss,63.9331,-20.9971,276.51,97,100,4.41,IS,1710292294
georgetown,5.4112,100.3354,301.11,74,20,3.09,MY,1710292122
kalifornsky,60.4183,-151.29,277.34,41,40,8.23,US,1710292297
kpandae,8.4689,-0.0113,302.79,53,75,3.59,GH,1710292298
yaren,-0.5472,166.916,301.41,81,86,4.14,NR,1710292239
bor,56.3567,44.0669,271.11,100,100,1.63,RU,1710292300
fredericksburg,38.3032,-77.4605,288.27,55,0,2.57,US,1710292038
marka,1.7159,44.7717,299.94,82,29,3.91,SO,1710292301
miastko,54.0028,16.9826,278.42,92,100,1.34,PL,1710292303
farasan,16.7022,42.1183,300.99,80,76,1.71,SA,1710292304
xining,36.6167,101.7667,274.58,36,0,1.04,CN,1710292304
nizhniy kuranakh,58.8353,125.4869,264.01,92,100,1.26,RU,1710292309
akureyri,65.6835,-18.0878,273.17,98,100,1.5,IS,1710292310
san ciro de acosta,21.6333,-99.8167,296.52,51,1,4.22,MX,1710292313
touros,-5.1989,-35.4608,300.96,79,11,2.87,BR,1710292375
uva,56.9908,52.1852,255.11,100,100,1.0,RU,1710292378
kalix,65.853,23.1565,267.49,97,100,1.76,SE,1710292323
antofagasta,-23.65,-70.4,292.77,82,65,2.1,CL,1710292245
mount pearl,47.5166,-52.7813,274.24,96,100,1.03,CA,1710292380
bage,-31.3314,-54.1069,299.03,73,0,6.17,BR,1710292381
parintins,-2.6283,-56.7358,298.89,91,86,1.56,BR,1710292382
pale,43.8161,18.5694,277.01,86,75,2.06,BA,1710292382
richards bay,-28.783,32.0377,298.9,83,100,5.71,ZA,1710292384
sergeyevka,53.88,67.4158,255.15,99,97,1.12,KZ,1710292385
longboat key,27.4125,-82.659,295.38,65,0,2.06,US,1710292386
rongelap,11.1635,166.8941,299.84,78,100,10.02,MH,1710292387
klaksvik,62.2266,-6.589,279.92,89,100,9.09,FO,1710292387
kincardine,56.0667,-3.7167,285.68,95,100,6.37,GB,1710292388
elliot lake,46.3834,-82.6331,274.03,89,100,2.46,CA,1710292389
esquel,-42.9,-71.3167,281.86,85,43,3.25,AR,1710292158
heppenheim an der bergstrasse,49.6408,8.6372,282.07,95,100,2.68,DE,1710292391
bokkos,9.3,9.0,297.09,37,97,2.01,NG,1710292392
lihue,21.9789,-159.3672,299.73,76,0,6.17,US,1710292392
dukku,10.8231,10.7717,301.57,12,100,3.64,NG,1710292393
auki,-8.7676,160.7034,302.66,71,54,2.21,SB,1710292395
st. john's,47.5649,-52.7093,274.7,96,100,1.03,CA,1710292288
tobruk,32.0836,23.9764,289.17,72,9,6.65,LY,1710292397
barclayville,4.6797,-8.2339,300.15,91,100,1.91,LR,1710292398
acarau,-2.8856,-40.12,300.09,84,100,3.74,BR,1710292206
sungailiat,-1.85,106.1333,299.87,89,100,4.84,ID,1710292400
suva,-18.1416,178.4415,300.86,89,75,4.12,FJ,1710292401
taro,-8.3862,115.28,298.15,84,100,1.62,ID,1710292402
kon tum,14.35,108.0,297.12,66,98,1.04,VN,1710292403
biryusinsk,55.9634,97.8235,265.96,94,100,2.67,RU,1710292405
uyovu,-3.2833,31.5258,290.99,95,81,1.72,TZ,1710292406
siwa oasis,29.2041,25.5195,290.24,31,0,1.91,EG,1710292406
melekeok village,7.4957,134.6367,302.46,79,75,6.17,PW,1710292410
springbok,-29.6643,17.8865,290.05,55,60,1.33,ZA,1710292410
igarka,67.4667,86.5833,249.6,98,100,7.17,RU,1710292411
great bend,38.3645,-98.7648,290.95,43,0,0.0,US,1710292414
priob'ye,62.5206,65.5964,254.28,95,100,3.95,RU,1710292414
muynoq,43.7683,59.0214,275.17,53,6,6.45,UZ,1710292404
ukiah,39.1502,-123.2078,287.28,69,0,5.66,US,1710292418
sola,-13.8833,167.55,301.41,79,100,6.43,VU,1710292418
mitsamiouli,-11.3847,43.2844,301.33,74,97,2.75,KM,1710292419
westport,41.1415,-73.3579,287.19,45,0,0.0,US,1710292318
zhengjiatun,43.5064,123.5064,275.67,48,0,4.05,CN,1710292424
faya-largeau,17.9257,19.1043,298.2,13,56,5.24,TD,1710292425
dalian,38.9122,121.6022,283.11,29,0,5.0,CN,1710292425
sunne,59.8376,13.143,274.33,95,100,0.74,SE,1710292427
aragarcas,-15.8975,-52.2508,298.64,87,8,1.78,BR,1710292428
saminaka,10.414,8.6828,298.63,46,100,1.26,NG,1710292432
paracuru,-3.41,-39.0306,302.65,84,100,2.74,BR,1710292433
turbat,26.0023,63.044,291.06,42,0,10.06,PK,1710292495
salinopolis,-0.6136,-47.3561,299.9,87,87,3.87,BR,1710292496
puerto baquerizo moreno,-0.9,-89.6,300.37,79,68,2.27,EC,1710292497
yonggang-up,38.8561,125.4244,280.32,45,7,4.46,KP,1710292498
kapit,2.0167,112.9333,297.99,98,100,0.76,MY,1710292500
clovis,36.8252,-119.7029,291.43,63,75,4.12,US,1710292425
bandundu,-3.3167,17.3667,297.87,71,69,0.81,CD,1710292505
kirs,59.3388,52.2447,258.97,99,99,2.04,RU,1710292507
fuglafjordur,62.244,-6.814,279.48,89,100,8.16,FO,1710292509
conceicao do almeida,-12.7794,-39.17,297.7,94,63,2.05,BR,1710292510
argo,37.6333,22.7333,283.59,76,1,1.88,GR,1710292512
boryeong,36.3493,126.5977,281.13,58,9,2.08,KR,1710292513
funafuti,-8.5243,179.1942,306.15,75,75,1.03,TV,1710292514
ambodifotatra,-16.9833,49.85,300.71,75,17,5.72,MG,1710292515
kavaratti,10.5669,72.642,300.74,73,6,2.84,IN,1710292516
paramonga,-10.6667,-77.8333,296.06,88,96,3.58,PE,1710292518
kuytun,54.3419,101.5036,266.03,89,100,4.29,RU,1710292518
port-vila,-17.7338,168.3219,303.93,84,75,2.06,VU,1710292298
namtsy,62.7161,129.6658,258.2,91,100,1.62,RU,1710292521
nkowakowa,-23.8878,30.2871,295.13,65,100,2.17,ZA,1710292522
soio,-6.1349,12.3689,300.88,90,93,3.57,AO,1710292523
acapulco de juarez,16.8634,-99.8901,300.05,83,0,5.14,MX,1710292506
itaituba,-4.2761,-55.9836,297.71,98,100,0.81,BR,1710292279
penaranda de bracamonte,40.9011,-5.2003,282.23,73,100,1.05,ES,1710292414
elmadag,39.9208,33.2308,282.23,56,100,2.42,TR,1710292531
asau,46.4333,26.4,277.75,98,100,1.78,RO,1710292532
borogontsy,62.6683,131.1683,258.86,92,100,2.54,RU,1710292534
loango,-4.6719,11.8312,300.32,92,100,1.13,CG,1710292536
illizi,26.4833,8.4667,290.24,24,100,3.24,DZ,1710292538
hang dong,18.687,98.9194,299.63,64,0,1.03,TH,1710292539
chekmagush,55.1319,54.6556,258.05,100,100,1.44,RU,1710292541
dolores hidalgo cuna de la independencia nacional,21.1561,-100.9308,297.52,12,44,3.37,MX,1710292535
boiling springs,35.0465,-81.9818,290.31,25,0,0.0,US,1710292547
queenstown,-31.8976,26.8753,290.2,85,99,1.18,ZA,1710292548
weining,26.85,104.2333,280.09,79,96,3.14,CN,1710292550
rudbar,30.15,62.6,281.1,63,0,7.04,AF,1710292552
port isabel,26.0734,-97.2086,296.2,84,100,4.02,US,1710292501
sao vicente,-23.9631,-46.3919,298.86,26,96,3.22,BR,1710292203
tadine,-21.55,167.8833,299.95,85,88,8.34,NC,1710292555
altai,46.3722,96.2583,269.66,31,32,1.68,MN,1710292557
pemangkat,1.1667,108.9667,300.13,80,97,3.72,ID,1710292558
mukdahan,16.5833,104.5,300.55,54,32,2.77,TH,1710292559
umluj,25.0213,37.2685,298.29,44,9,2.02,SA,1710292560
krasnyy kut,50.95,46.9667,264.92,96,18,2.94,RU,1710292560
achinsk,56.2694,90.4993,262.7,92,100,1.34,RU,1710292561
myeik,12.4333,98.6,299.79,70,100,1.2,MM,1710292561
murray bridge,-35.1167,139.2667,298.89,48,100,3.74,AU,1710292564
rosarito,32.3333,-117.0333,290.11,74,85,4.6,MX,1710292625
wenshui,28.4506,106.5267,283.7,95,100,1.2,CN,1710292626
livingston,55.9029,-3.5226,285.44,91,100,7.71,GB,1710292627
lamu,-2.2717,40.902,300.83,77,65,3.69,KE,1710292628
menongue,-14.6585,17.691,291.35,75,100,1.91,AO,1710292629
idrija,46.0028,14.0306,279.37,93,20,0.98,SI,1710292630
kargil,34.5667,76.1,254.88,90,97,1.25,IN,1710292630
flying fish cove,-10.4217,105.6791,299.97,83,75,5.14,CX,1710292631
bodo,67.28,14.405,273.17,56,0,7.2,NO,1710292632
rio grande,-32.035,-52.0986,297.01,84,100,6.27,BR,1710292265
happy valley-goose bay,53.3168,-60.3315,275.32,80,100,7.2,CA,1710292633
usogorsk,63.4106,48.6872,269.8,94,100,4.58,RU,1710292635
rouissat,31.9243,5.3502,287.13,27,0,2.76,DZ,1710292635
ocean city,39.2776,-74.5746,286.48,59,15,0.89,US,1710292581
kone,-21.0595,164.8658,303.95,67,73,3.02,NC,1710292571
laguna,38.421,-121.4238,290.62,60,20,1.54,US,1710292622
awjilah,29.1081,21.2869,289.43,38,1,6.26,LY,1710292641
bekondo,4.6819,9.3214,297.29,95,100,1.33,CM,1710292642
pervomayskoye,43.919,46.7102,272.82,89,14,3.53,RU,1710292642
labrador city,52.9463,-66.9114,268.25,78,100,3.93,CA,1710292513
susuman,62.7833,148.1667,247.03,98,94,0.89,RU,1710292647
itagiba,-14.2836,-39.8428,296.04,93,48,0.37,BR,1710292648
wenling,28.3669,121.36,282.18,67,100,2.93,CN,1710292649
mozarlandia,-14.7447,-50.5706,299.53,81,32,1.17,BR,1710292650
freetown,8.484,-13.2299,298.7,80,100,2.88,SL,1710292653
mirnyy,62.5353,113.9611,256.06,77,100,1.79,RU,1710292655
roxas,11.5853,122.7511,300.45,64,30,5.78,PH,1710292655
khovd,48.0056,91.6419,271.35,36,100,1.23,MN,1710292656
riyadh,24.6877,46.7219,287.23,26,8,2.52,SA,1710292507
safi,32.1667,-8.8333,286.97,76,100,3.57,MA,1710292664
mumford,5.2618,-0.759,300.55,89,100,4.23,GH,1710292668
makhambet,47.6667,51.5833,270.73,75,37,3.59,KZ,1710292669
ascoli piceno,42.8548,13.5749,282.73,86,7,0.45,IT,1710292671
colonia,50.9333,6.95,282.01,91,100,3.6,DE,1710292353
walvis bay,-22.9575,14.5053,289.87,88,81,3.94,NA,1710292672
aral,40.5156,81.2636,280.28,30,100,3.01,CN,1710292673
margate,51.3813,1.3862,284.21,92,100,2.68,GB,1710292424
amga,60.8953,131.9608,263.7,91,100,1.75,RU,1710292681
nicoya,10.1483,-85.452,301.22,61,25,6.26,CR,1710292685
fereydunshahr,32.941,50.121,269.85,36,0,1.39,IR,1710292687
qarazhal,48.0078,70.7903,263.86,94,9,5.06,KZ,1710292688
bima,-8.4667,118.7167,300.97,89,100,1.96,ID,1710292573
isangel,-19.55,169.2667,301.18,84,100,0.83,VU,1710292691
vorkuta,67.5,64.0,257.22,89,100,7.78,RU,1710292625
pottsville,40.6857,-76.1955,286.68,66,96,2.09,US,1710292697
saint-just-en-chaussee,49.505,2.4329,283.76,94,100,5.59,FR,1710292758
mwinilunga,-11.7358,24.4293,289.88,97,94,0.77,ZM,1710292759
ouddorp,51.8117,3.9347,283.73,90,100,6.81,NL,1710292760
agat village,13.3886,144.6585,300.67,85,100,4.63,GU,1710292761
rockport,28.0206,-97.0544,296.16,88,100,5.14,US,1710292763
puerto deseado,-47.7503,-65.8938,290.83,30,64,9.88,AR,1710292585
tomohon,1.3346,124.8392,298.67,78,100,2.15,ID,1710292766
kaspiyskiy,45.3929,47.3707,272.38,65,0,1.04,RU,1710292767
katrineholm,58.9959,16.2072,274.09,98,100,1.12,SE,1710292769
kenora,49.8167,-94.4337,277.69,70,75,3.09,CA,1710292770
dire,12.2833,-10.9667,303.38,18,100,0.87,ML,1710292771
zhelezinka,53.54,75.3072,249.44,100,100,1.08,KZ,1710292772
urangan,-25.3,152.9,298.26,87,95,2.68,AU,1710292772
quiindy,-25.9667,-57.2667,305.42,39,36,3.64,PY,1710292773
praia da vitoria,38.7333,-27.0667,289.68,88,75,5.68,PT,1710292773
bath,51.3779,-2.3591,285.23,89,100,5.39,GB,1710292692
virginia,37.5481,-77.4467,288.14,50,75,3.09,US,1710292501
tshabong,-26.05,22.45,299.25,32,66,4.31,BW,1710292777
fuxin,42.0156,121.6589,278.99,35,0,3.07,CN,1710292778
keminmaa,65.8596,24.8228,268.02,93,100,2.06,FI,1710292781
muisne,0.6,-80.0333,300.05,86,100,3.17,EC,1710292782
kukmor,56.1855,50.8944,260.13,100,98,1.94,RU,1710292784
krasnovishersk,60.4078,57.082,255.43,99,100,1.66,RU,1710292784
swakopmund,-22.6833,14.5333,289.81,86,88,1.34,NA,1710292786
amnat charoen,15.9167,104.75,302.19,51,42,4.4,TH,1710292788
sebeta,8.9167,38.6167,289.17,73,5,1.79,ET,1710292789
colchani,-20.3,-66.9333,287.15,57,100,6.09,BO,1710292790
sault ste. marie,46.5168,-84.3333,279.46,61,0,3.09,CA,1710292553
saynshand,44.8824,110.1163,265.19,83,11,2.38,MN,1710292792
canutama,-6.5339,-64.3831,299.17,88,76,0.58,BR,1710292793
sisimiut,66.9395,-53.6735,262.44,94,98,3.23,GL,1710292794
poronaysk,49.2167,143.1167,265.11,72,3,4.25,RU,1710292582
santa catalina,9.3337,122.8637,303.14,63,87,5.66,PH,1710292541
at taj,24.2049,23.2857,290.45,15,0,4.24,LY,1710292796
ghat,24.9647,10.1728,292.09,22,99,2.24,LY,1710292798
east ballina,-28.8667,153.5833,298.59,56,35,5.05,AU,1710292506
vung tau,10.346,107.0843,300.06,76,100,8.35,VN,1710292799
votkinsk,57.0486,53.9872,254.68,100,100,1.03,RU,1710292800
urumqi,43.801,87.6005,271.68,86,20,2.0,CN,1710292801
berdigestyakh,62.0989,126.6992,259.54,96,100,2.14,RU,1710292804
nouna,12.7333,-3.8667,303.31,15,96,3.36,BF,1710292806
timimoun,29.2639,0.231,290.33,26,34,4.66,DZ,1710292807
cruzeiro do sul,-29.5128,-51.9853,299.31,87,0,0.35,BR,1710292809
lata,40.1629,-8.3327,282.64,86,95,1.98,PT,1710292809
erenhot,43.6475,111.9767,272.64,54,0,3.1,CN,1710292532
abepura,-2.6333,140.5833,300.6,83,40,1.54,ID,1710292874
mahina,-17.5065,-149.489,305.02,70,0,5.66,PF,1710292878
shevchenko,48.5,35.0,275.55,48,100,5.86,UA,1710292879
mount holly,35.2982,-81.0159,289.42,41,0,0.89,US,1710292879
soligalich,59.0778,42.2864,272.42,96,100,3.17,RU,1710292881
salalah,17.0151,54.0924,300.2,83,75,1.03,OM,1710292883
luena,-11.7833,19.9167,292.25,94,100,1.54,AO,1710292886
grove,51.6095,-1.4219,285.4,89,75,5.14,GB,1710292886
kichmengskiy gorodok,59.9816,45.7854,268.12,95,100,3.13,RU,1710292888
mamou,10.5,-12.0,298.06,35,100,1.6,GN,1710292889
mujiayingzi,42.1167,118.7833,277.15,28,0,2.7,CN,1710292890
orange walk,17.8333,-88.8333,298.33,74,0,3.09,BZ,1710292890
mana,5.6592,-53.7767,299.47,87,100,4.53,GF,1710292892
miasskoye,55.2784,61.8905,261.64,100,68,2.02,RU,1710292893
kabinda,-6.1333,24.4833,293.03,97,73,1.21,CD,1710292894
cidreira,-30.1811,-50.2056,296.14,84,100,9.0,BR,1710292895
ketchikan,55.3422,-131.6461,279.14,93,100,4.12,US,1710292604
jeddah,21.5169,39.2192,301.07,47,0,0.0,SA,1710292896
las khorey,11.1595,48.1967,300.03,75,10,3.29,SO,1710292897
buta,2.7858,24.73,296.06,82,93,0.65,CD,1710292897
tarakan,3.3,117.6333,303.87,66,40,5.66,ID,1710292898
lone grove,34.1754,-97.2628,294.81,71,0,4.12,US,1710292900
kismayo,-0.3582,42.5454,300.89,78,57,4.77,SO,1710292901
bargaal,11.2864,51.0773,296.43,95,9,1.47,SO,1710292902
bamboo flat,11.7,92.7167,298.2,88,100,1.03,IN,1710292903
hithadhoo,-0.6,73.0833,301.13,64,70,1.98,MV,1710292903
lexington park,38.2668,-76.4538,288.18,51,0,2.06,US,1710292904
virac,13.6333,124.2167,296.85,68,27,4.11,PH,1710292904
mawu,29.5923,107.3139,284.71,90,100,0.61,CN,1710292908
dezhou,37.4486,116.2925,284.52,33,73,6.08,CN,1710292910
piacabucu,-10.4056,-36.4344,300.99,83,20,3.8,BR,1710292912
amos,48.5669,-78.1162,268.59,94,90,2.55,CA,1710292913
kendari,-3.945,122.4989,297.73,97,100,0.58,ID,1710292913
bandar lampung,-5.4254,105.258,297.24,96,100,1.91,ID,1710292914
charters towers,-20.1,146.2667,301.65,47,0,7.14,AU,1710292916
bahia de caraquez,-0.6,-80.4167,299.25,82,100,2.91,EC,1710292916
port douglas,-16.4833,145.4667,303.18,60,52,2.71,AU,1710292918
karayazi,39.7028,42.1456,262.61,81,11,0.75,TR,1710292919
port lincoln,-34.7333,135.8667,294.6,75,100,5.76,AU,1710292919
ifrane,33.3333,-5.25,282.11,49,100,2.75,MA,1710292920
kuruman,-27.4524,23.4325,297.59,36,71,2.83,ZA,1710292923
aqsay,51.1678,52.995,265.6,96,97,2.82,KZ,1710292924
san patricio,28.017,-97.5169,295.2,76,100,5.78,US,1710292926
bentiu,9.2333,29.8333,302.65,21,76,1.91,SS,1710292926
williams lake,52.1415,-122.1445,279.91,45,40,1.03,CA,1710292927
toyooka,35.5333,134.8333,280.18,61,75,3.6,JP,1710292929
aioun,16.6614,-9.6149,300.03,14,10,5.02,MR,1710292929
mukalla,14.5425,49.1242,298.97,81,100,1.88,YE,1710292991
nakkila,61.3667,22.0,268.09,86,0,1.03,FI,1710292994
fisterra,42.9049,-9.2629,280.79,78,13,4.29,ES,1710292995
amparafaravola,-17.5833,48.2167,291.85,94,71,1.91,MG,1710292997
nizhnesortymskiy,62.4397,71.7603,250.91,100,85,4.29,RU,1710292998
hanzhong,33.0728,107.0303,284.24,85,100,0.7,CN,1710292998
pingdu,36.7844,119.9464,281.55,46,100,4.61,CN,1710292999
ascoli satriano,41.2061,15.5615,277.84,78,36,3.65,IT,1710293000
wellington,-41.2866,174.7756,292.07,66,75,7.72,NZ,1710292828
lithgow,-33.4833,150.15,294.07,28,100,2.71,AU,1710293002
malax,62.9423,21.5731,270.3,80,75,2.57,FI,1710293004
